{
    "cantidad": 529,
    "total": 529,
    "inicio": 0,
    "parametros": {
  
    },
    "provincias": [
      {
        "id": "06014",
        "nombre": "Adolfo Gonzales Chaves",
        "nombre_completo": "Partido de Adolfo Gonzales Chaves",
        "provincia": {
          "id": "06",
          "nombre": "Buenos Aires",
          "interseccion": 0.0125815079288771
        },
        "fuente": "IGN",
        "categoria": "Partido",
        "centroide": {
          "lon": -60.2482821323384,
          "lat": -37.9646159068483
        }
      },
      {
        "id": "30015",
        "nombre": "Concordia",
        "nombre_completo": "Departamento Concordia",
        "provincia": {
          "id": "30",
          "nombre": "Entre Ríos",
          "interseccion": 0.0414681664516468
        },
        "fuente": "IGN",
        "categoria": "Departamento",
        "centroide": {
          "lon": -58.2378696898985,
          "lat": -31.2902983724746
        }
      },
      {
        "id": "30035",
        "nombre": "Federal",
        "nombre_completo": "Departamento Federal",
        "provincia": {
          "id": "30",
          "nombre": "Entre Ríos",
          "interseccion": 0.0657426173552007
        },
        "fuente": "IGN",
        "categoria": "Departamento",
        "centroide": {
          "lon": -58.8918600477175,
          "lat": -30.9924267798293
        }
      },
      {
        "id": "30056",
        "nombre": "Gualeguaychú",
        "nombre_completo": "Departamento Gualeguaychú",
        "provincia": {
          "id": "30",
          "nombre": "Entre Ríos",
          "interseccion": 0.0970757725759829
        },
        "fuente": "IGN",
        "categoria": "Departamento",
        "centroide": {
          "lon": -58.7858051710614,
          "lat": -33.0223490410459
        }
      },
      {
        "id": "30063",
        "nombre": "Islas del Ibicuy",
        "nombre_completo": "Departamento Islas del Ibicuy",
        "provincia": {
          "id": "30",
          "nombre": "Entre Ríos",
          "interseccion": 0.0641372927357608
        },
        "fuente": "IGN",
        "categoria": "Departamento",
        "centroide": {
          "lon": -58.9338958542555,
          "lat": -33.6249961546235
        }
      },
      {
        "id": "30105",
        "nombre": "Victoria",
        "nombre_completo": "Departamento Victoria",
        "provincia": {
          "id": "30",
          "nombre": "Entre Ríos",
          "interseccion": 0.08535097955251
        },
        "fuente": "IGN",
        "categoria": "Departamento",
        "centroide": {
          "lon": -60.2180700308372,
          "lat": -32.7839424597941
        }
      },
      {
        "id": "30021",
        "nombre": "Diamante",
        "nombre_completo": "Departamento Diamante",
        "provincia": {
          "id": "30",
          "nombre": "Entre Ríos",
          "interseccion": 0.03422446464709
        },
        "fuente": "IGN",
        "categoria": "Departamento",
        "centroide": {
          "lon": -60.5239335893593,
          "lat": -32.228040549074
        }
      },
      {
        "id": "30098",
        "nombre": "Uruguay",
        "nombre_completo": "Departamento Uruguay",
        "provincia": {
          "id": "30",
          "nombre": "Entre Ríos",
          "interseccion": 0.0656693954597871
        },
        "fuente": "IGN",
        "categoria": "Departamento",
        "centroide": {
          "lon": -58.5842252100111,
          "lat": -32.4477599400377
        }
      },
      {
        "id": "30084",
        "nombre": "Paraná",
        "nombre_completo": "Departamento Paraná",
        "provincia": {
          "id": "30",
          "nombre": "Entre Ríos",
          "interseccion": 0.0648976911507347
        },
        "fuente": "IGN",
        "categoria": "Departamento",
        "centroide": {
          "lon": -60.0411744815271,
          "lat": -31.6952294494901
        }
      },
      {
        "id": "06707",
        "nombre": "Saladillo",
        "nombre_completo": "Partido de Saladillo",
        "provincia": {
          "id": "06",
          "nombre": "Buenos Aires",
          "interseccion": 0.0087272407383685
        },
        "fuente": "IGN",
        "categoria": "Partido",
        "centroide": {
          "lon": -59.7026607444531,
          "lat": -35.676806451923
        }
      },
      {
        "id": "06455",
        "nombre": "Las Flores",
        "nombre_completo": "Partido de Las Flores",
        "provincia": {
          "id": "06",
          "nombre": "Buenos Aires",
          "interseccion": 0.0108187309918714
        },
        "fuente": "IGN",
        "categoria": "Partido",
        "centroide": {
          "lon": -59.1764609497072,
          "lat": -36.015826657022
        }
      },
      {
        "id": "06686",
        "nombre": "Rojas",
        "nombre_completo": "Partido de Rojas",
        "provincia": {
          "id": "06",
          "nombre": "Buenos Aires",
          "interseccion": 0.00652704312649808
        },
        "fuente": "IGN",
        "categoria": "Partido",
        "centroide": {
          "lon": -60.7880234647739,
          "lat": -34.1928173894529
        }
      },
      {
        "id": "06252",
        "nombre": "Escobar",
        "nombre_completo": "Partido de Escobar",
        "provincia": {
          "id": "06",
          "nombre": "Buenos Aires",
          "interseccion": 0.000955034967498567
        },
        "fuente": "IGN",
        "categoria": "Partido",
        "centroide": {
          "lon": -58.7711786108511,
          "lat": -34.3286828340822
        }
      },
      {
        "id": "06412",
        "nombre": "José C. Paz",
        "nombre_completo": "Partido de José C. Paz",
        "provincia": {
          "id": "06",
          "nombre": "Buenos Aires",
          "interseccion": 0.000159523784368258
        },
        "fuente": "IGN",
        "categoria": "Partido",
        "centroide": {
          "lon": -58.7776345982883,
          "lat": -34.511853162718
        }
      },
      {
        "id": "06056",
        "nombre": "Bahía Blanca",
        "nombre_completo": "Partido de Bahía Blanca",
        "provincia": {
          "id": "06",
          "nombre": "Buenos Aires",
          "interseccion": 0.0076287302296
        },
        "fuente": "IGN",
        "categoria": "Partido",
        "centroide": {
          "lon": -62.1694174494415,
          "lat": -38.5841892126256
        }
      },
      {
        "id": "06735",
        "nombre": "San Antonio de Areco",
        "nombre_completo": "Partido de San Antonio de Areco",
        "provincia": {
          "id": "06",
          "nombre": "Buenos Aires",
          "interseccion": 0.00273098396262856
        },
        "fuente": "IGN",
        "categoria": "Partido",
        "centroide": {
          "lon": -59.5194434817548,
          "lat": -34.2207575658705
        }
      },
      {
        "id": "06511",
        "nombre": "Maipú",
        "nombre_completo": "Partido de Maipú",
        "provincia": {
          "id": "06",
          "nombre": "Buenos Aires",
          "interseccion": 0.00852590817145907
        },
        "fuente": "IGN",
        "categoria": "Partido",
        "centroide": {
          "lon": -57.5861191040468,
          "lat": -36.886933208215
        }
      },
      {
        "id": "06280",
        "nombre": "General Alvarado",
        "nombre_completo": "Partido de General Alvarado",
        "provincia": {
          "id": "06",
          "nombre": "Buenos Aires",
          "interseccion": 0.00542289153650628
        },
        "fuente": "IGN",
        "categoria": "Partido",
        "centroide": {
          "lon": -58.0718053725136,
          "lat": -38.2026277127362
        }
      },
      {
        "id": "06357",
        "nombre": "General Pueyrredón",
        "nombre_completo": "Partido de General Pueyrredón",
        "provincia": {
          "id": "06",
          "nombre": "Buenos Aires",
          "interseccion": 0.00485616159292092
        },
        "fuente": "IGN",
        "categoria": "Partido",
        "centroide": {
          "lon": -57.743028347627,
          "lat": -37.9656831422541
        }
      },
      {
        "id": "06518",
        "nombre": "Mar Chiquita",
        "nombre_completo": "Partido de Mar Chiquita",
        "provincia": {
          "id": "06",
          "nombre": "Buenos Aires",
          "interseccion": 0.0101928457530162
        },
        "fuente": "IGN",
        "categoria": "Partido",
        "centroide": {
          "lon": -57.6432660560016,
          "lat": -37.4986405981654
        }
      },
      {
        "id": "06868",
        "nombre": "Villa Gesell",
        "nombre_completo": "Partido de Villa Gesell",
        "provincia": {
          "id": "06",
          "nombre": "Buenos Aires",
          "interseccion": 0.000541777106644209
        },
        "fuente": "IGN",
        "categoria": "Partido",
        "centroide": {
          "lon": -57.0633978822493,
          "lat": -37.3670719558785
        }
      },
      {
        "id": "06644",
        "nombre": "Pinamar",
        "nombre_completo": "Partido de Pinamar",
        "provincia": {
          "id": "06",
          "nombre": "Buenos Aires",
          "interseccion": 0.0002156207651597
        },
        "fuente": "IGN",
        "categoria": "Partido",
        "centroide": {
          "lon": -56.8702834122236,
          "lat": -37.1110742904936
        }
      },
      {
        "id": "06336",
        "nombre": "General Lavalle",
        "nombre_completo": "Partido de General Lavalle",
        "provincia": {
          "id": "06",
          "nombre": "Buenos Aires",
          "interseccion": 0.00882829392925035
        },
        "fuente": "IGN",
        "categoria": "Partido",
        "centroide": {
          "lon": -56.9410029895247,
          "lat": -36.650750377237
        }
      },
      {
        "id": "06420",
        "nombre": "La Costa",
        "nombre_completo": "Partido de La Costa",
        "provincia": {
          "id": "06",
          "nombre": "Buenos Aires",
          "interseccion": 0.000764027583219186
        },
        "fuente": "IGN",
        "categoria": "Partido",
        "centroide": {
          "lon": -56.7159402751909,
          "lat": -36.6971678213727
        }
      },
      {
        "id": "06505",
        "nombre": "Magdalena",
        "nombre_completo": "Partido de Magdalena",
        "provincia": {
          "id": "06",
          "nombre": "Buenos Aires",
          "interseccion": 0.00592850064090218
        },
        "fuente": "IGN",
        "categoria": "Partido",
        "centroide": {
          "lon": -57.6861279818118,
          "lat": -35.1851030703307
        }
      },
      {
        "id": "18175",
        "nombre": "Sauce",
        "nombre_completo": "Departamento Sauce",
        "provincia": {
          "id": "18",
          "nombre": "Corrientes",
          "interseccion": 0.0282988986710765
        },
        "fuente": "IGN",
        "categoria": "Departamento",
        "centroide": {
          "lon": -58.7949968561603,
          "lat": -29.9995030631702
        }
      },
      {
        "id": "06861",
        "nombre": "Vicente López",
        "nombre_completo": "Partido de Vicente López",
        "provincia": {
          "id": "06",
          "nombre": "Buenos Aires",
          "interseccion": 0.000109553053877661
        },
        "fuente": "IGN",
        "categoria": "Partido",
        "centroide": {
          "lon": -58.5044865130649,
          "lat": -34.52653142362
        }
      },
      {
        "id": "66098",
        "nombre": "La Viña",
        "nombre_completo": "Departamento La Viña",
        "provincia": {
          "id": "66",
          "nombre": "Salta",
          "interseccion": 0.0130169439826571
        },
        "fuente": "IGN",
        "categoria": "Departamento",
        "centroide": {
          "lon": -65.5805831392571,
          "lat": -25.4471786730855
        }
      },
      {
        "id": "06672",
        "nombre": "Rauch",
        "nombre_completo": "Partido de Rauch",
        "provincia": {
          "id": "06",
          "nombre": "Buenos Aires",
          "interseccion": 0.0140638609551262
        },
        "fuente": "IGN",
        "categoria": "Partido",
        "centroide": {
          "lon": -58.9441413666159,
          "lat": -36.5721944489319
        }
      },
      {
        "id": "66112",
        "nombre": "Metán",
        "nombre_completo": "Departamento Metán",
        "provincia": {
          "id": "66",
          "nombre": "Salta",
          "interseccion": 0.0341706113610445
        },
        "fuente": "IGN",
        "categoria": "Departamento",
        "centroide": {
          "lon": -64.5880714654829,
          "lat": -25.4252109663753
        }
      },
      {
        "id": "66119",
        "nombre": "Molinos",
        "nombre_completo": "Departamento Molinos",
        "provincia": {
          "id": "66",
          "nombre": "Salta",
          "interseccion": 0.0241553887647224
        },
        "fuente": "IGN",
        "categoria": "Departamento",
        "centroide": {
          "lon": -66.4548727525442,
          "lat": -25.5643165283563
        }
      },
      {
        "id": "22112",
        "nombre": "O'Higgins",
        "nombre_completo": "Departamento O'Higgins",
        "provincia": {
          "id": "22",
          "nombre": "Chaco",
          "interseccion": 0.0158188618965095
        },
        "fuente": "IGN",
        "categoria": "Departamento",
        "centroide": {
          "lon": -60.6799749172166,
          "lat": -27.2556537688374
        }
      },
      {
        "id": "06560",
        "nombre": "Moreno",
        "nombre_completo": "Partido de Moreno",
        "provincia": {
          "id": "06",
          "nombre": "Buenos Aires",
          "interseccion": 0.000592812574517563
        },
        "fuente": "IGN",
        "categoria": "Partido",
        "centroide": {
          "lon": -58.8108985084565,
          "lat": -34.6106807864965
        }
      },
      {
        "id": "06427",
        "nombre": "La Matanza",
        "nombre_completo": "Partido de La Matanza",
        "provincia": {
          "id": "06",
          "nombre": "Buenos Aires",
          "interseccion": 0.00104421888100573
        },
        "fuente": "IGN",
        "categoria": "Partido",
        "centroide": {
          "lon": -58.6254456945004,
          "lat": -34.7703481015398
        }
      },
      {
        "id": "06791",
        "nombre": "Tandil",
        "nombre_completo": "Partido de Tandil",
        "provincia": {
          "id": "06",
          "nombre": "Buenos Aires",
          "interseccion": 0.0159890350191502
        },
        "fuente": "IGN",
        "categoria": "Partido",
        "centroide": {
          "lon": -59.1819827896233,
          "lat": -37.3364293166464
        }
      },
      {
        "id": "06203",
        "nombre": "Coronel Suárez",
        "nombre_completo": "Partido de Coronel Suárez",
        "provincia": {
          "id": "06",
          "nombre": "Buenos Aires",
          "interseccion": 0.0197588558596591
        },
        "fuente": "IGN",
        "categoria": "Partido",
        "centroide": {
          "lon": -61.8890922422146,
          "lat": -37.534856250067
        }
      },
      {
        "id": "46035",
        "nombre": "Chamical",
        "nombre_completo": "Departamento Chamical",
        "provincia": {
          "id": "46",
          "nombre": "La Rioja",
          "interseccion": 0.0605488854563919
        },
        "fuente": "IGN",
        "categoria": "Departamento",
        "centroide": {
          "lon": -65.9564977168655,
          "lat": -30.1676450229169
        }
      },
      {
        "id": "26035",
        "nombre": "Futaleufú",
        "nombre_completo": "Departamento Futaleufú",
        "provincia": {
          "id": "26",
          "nombre": "Chubut",
          "interseccion": 0.0403243450762755
        },
        "fuente": "IGN",
        "categoria": "Departamento",
        "centroide": {
          "lon": -71.4554653748233,
          "lat": -43.0705971248375
        }
      },
      {
        "id": "78049",
        "nombre": "Río Chico",
        "nombre_completo": "Departamento Río Chico",
        "provincia": {
          "id": "78",
          "nombre": "Santa Cruz",
          "interseccion": 0.137476439939694
        },
        "fuente": "IGN",
        "categoria": "Departamento",
        "centroide": {
          "lon": -71.113837498627,
          "lat": -48.2873290195571
        }
      },
      {
        "id": "62077",
        "nombre": "San Antonio",
        "nombre_completo": "Departamento San Antonio",
        "provincia": {
          "id": "62",
          "nombre": "Río Negro",
          "interseccion": 0.0714591672370002
        },
        "fuente": "IGN",
        "categoria": "Departamento",
        "centroide": {
          "lon": -65.3712443332326,
          "lat": -40.9526636914294
        }
      },
      {
        "id": "86014",
        "nombre": "Alberdi",
        "nombre_completo": "Departamento Alberdi",
        "provincia": {
          "id": "86",
          "nombre": "Santiago del Estero",
          "interseccion": 0.0930587231610861
        },
        "fuente": "IGN",
        "categoria": "Departamento",
        "centroide": {
          "lon": -62.7280139284021,
          "lat": -26.5210423501695
        }
      },
      {
        "id": "86098",
        "nombre": "Juan Felipe Ibarra",
        "nombre_completo": "Departamento Juan Felipe Ibarra",
        "provincia": {
          "id": "86",
          "nombre": "Santiago del Estero",
          "interseccion": 0.0676588956253692
        },
        "fuente": "IGN",
        "categoria": "Departamento",
        "centroide": {
          "lon": -62.5443747130478,
          "lat": -28.0394929915456
        }
      },
      {
        "id": "86077",
        "nombre": "General Taboada",
        "nombre_completo": "Departamento General Taboada",
        "provincia": {
          "id": "86",
          "nombre": "Santiago del Estero",
          "interseccion": 0.0445275238257305
        },
        "fuente": "IGN",
        "categoria": "Departamento",
        "centroide": {
          "lon": -62.3387633833787,
          "lat": -28.5683250686056
        }
      },
      {
        "id": "06721",
        "nombre": "Salliqueló",
        "nombre_completo": "Partido de Salliqueló",
        "provincia": {
          "id": "06",
          "nombre": "Buenos Aires",
          "interseccion": 0.00260021005098978
        },
        "fuente": "IGN",
        "categoria": "Partido",
        "centroide": {
          "lon": -63.0479735266054,
          "lat": -36.6717775352133
        }
      },
      {
        "id": "06091",
        "nombre": "Berazategui",
        "nombre_completo": "Partido de Berazategui",
        "provincia": {
          "id": "06",
          "nombre": "Buenos Aires",
          "interseccion": 0.000702861385533554
        },
        "fuente": "IGN",
        "categoria": "Partido",
        "centroide": {
          "lon": -58.155461508679,
          "lat": -34.8182447703794
        }
      },
      {
        "id": "66049",
        "nombre": "General Güemes",
        "nombre_completo": "Departamento General Güemes",
        "provincia": {
          "id": "66",
          "nombre": "Salta",
          "interseccion": 0.0141688649769075
        },
        "fuente": "IGN",
        "categoria": "Departamento",
        "centroide": {
          "lon": -64.9560620821107,
          "lat": -24.7646021168635
        }
      },
      {
        "id": "66154",
        "nombre": "San Carlos",
        "nombre_completo": "Departamento San Carlos",
        "provincia": {
          "id": "66",
          "nombre": "Salta",
          "interseccion": 0.0360647744849414
        },
        "fuente": "IGN",
        "categoria": "Departamento",
        "centroide": {
          "lon": -66.1746708204562,
          "lat": -25.8295042903902
        }
      },
      {
        "id": "06343",
        "nombre": "General Paz",
        "nombre_completo": "Partido de General Paz",
        "provincia": {
          "id": "06",
          "nombre": "Buenos Aires",
          "interseccion": 0.00385933575465238
        },
        "fuente": "IGN",
        "categoria": "Partido",
        "centroide": {
          "lon": -58.389651959253,
          "lat": -35.466183010272
        }
      },
      {
        "id": "06308",
        "nombre": "General Guido",
        "nombre_completo": "Partido de General Guido",
        "provincia": {
          "id": "06",
          "nombre": "Buenos Aires",
          "interseccion": 0.00759535201216554
        },
        "fuente": "IGN",
        "categoria": "Partido",
        "centroide": {
          "lon": -57.9957365952016,
          "lat": -36.6660345415851
        }
      },
      {
        "id": "06315",
        "nombre": "General Juan Madariaga",
        "nombre_completo": "Partido de General Juan Madariaga",
        "provincia": {
          "id": "06",
          "nombre": "Buenos Aires",
          "interseccion": 0.00979821124270234
        },
        "fuente": "IGN",
        "categoria": "Partido",
        "centroide": {
          "lon": -57.2306605949345,
          "lat": -37.1535157186092
        }
      },
      {
        "id": "78028",
        "nombre": "Lago Argentino",
        "nombre_completo": "Departamento Lago Argentino",
        "provincia": {
          "id": "78",
          "nombre": "Santa Cruz",
          "interseccion": 0.161094700744396
        },
        "fuente": "IGN",
        "categoria": "Departamento",
        "centroide": {
          "lon": -72.06547133431,
          "lat": -49.8364881436802
        }
      },
      {
        "id": "86154",
        "nombre": "Rivadavia",
        "nombre_completo": "Departamento Rivadavia",
        "provincia": {
          "id": "86",
          "nombre": "Santiago del Estero",
          "interseccion": 0.0250912878062891
        },
        "fuente": "IGN",
        "categoria": "Departamento",
        "centroide": {
          "lon": -62.280260406999,
          "lat": -30.0205069976617
        }
      },
      {
        "id": "86126",
        "nombre": "Ojo de Agua",
        "nombre_completo": "Departamento Ojo de Agua",
        "provincia": {
          "id": "86",
          "nombre": "Santiago del Estero",
          "interseccion": 0.0473615644009732
        },
        "fuente": "IGN",
        "categoria": "Departamento",
        "centroide": {
          "lon": -64.0144967880943,
          "lat": -29.3043766197306
        }
      },
      {
        "id": "86063",
        "nombre": "Choya",
        "nombre_completo": "Departamento Choya",
        "provincia": {
          "id": "86",
          "nombre": "Santiago del Estero",
          "interseccion": 0.0456732041614853
        },
        "fuente": "IGN",
        "categoria": "Departamento",
        "centroide": {
          "lon": -64.7638924389835,
          "lat": -28.7541678003854
        }
      },
      {
        "id": "74042",
        "nombre": "Gobernador Dupuy",
        "nombre_completo": "Departamento Gobernador Dupuy",
        "provincia": {
          "id": "74",
          "nombre": "San Luis",
          "interseccion": 0.248865379651948
        },
        "fuente": "IGN",
        "categoria": "Departamento",
        "centroide": {
          "lon": -65.809487372821,
          "lat": -35.3684506230675
        }
      },
      {
        "id": "66014",
        "nombre": "Cachi",
        "nombre_completo": "Departamento Cachi",
        "provincia": {
          "id": "66",
          "nombre": "Salta",
          "interseccion": 0.0184272654698326
        },
        "fuente": "IGN",
        "categoria": "Departamento",
        "centroide": {
          "lon": -66.2026200885047,
          "lat": -25.038755786337
        }
      },
      {
        "id": "66042",
        "nombre": "Chicoana",
        "nombre_completo": "Departamento Chicoana",
        "provincia": {
          "id": "66",
          "nombre": "Salta",
          "interseccion": 0.0068253904301787
        },
        "fuente": "IGN",
        "categoria": "Departamento",
        "centroide": {
          "lon": -65.6063327574043,
          "lat": -25.1514413324719
        }
      },
      {
        "id": "26042",
        "nombre": "Gaiman",
        "nombre_completo": "Departamento Gaiman",
        "provincia": {
          "id": "26",
          "nombre": "Chubut",
          "interseccion": 0.0513510410253859
        },
        "fuente": "IGN",
        "categoria": "Departamento",
        "centroide": {
          "lon": -66.1720705793314,
          "lat": -43.2725140893505
        }
      },
      {
        "id": "26077",
        "nombre": "Rawson",
        "nombre_completo": "Departamento Rawson",
        "provincia": {
          "id": "26",
          "nombre": "Chubut",
          "interseccion": 0.0182374677148841
        },
        "fuente": "IGN",
        "categoria": "Departamento",
        "centroide": {
          "lon": -65.0757170605931,
          "lat": -43.1373292631623
        }
      },
      {
        "id": "46077",
        "nombre": "General Lamadrid",
        "nombre_completo": "Departamento General Lamadrid",
        "provincia": {
          "id": "46",
          "nombre": "La Rioja",
          "interseccion": 0.06647462729753
        },
        "fuente": "IGN",
        "categoria": "Departamento",
        "centroide": {
          "lon": -68.6975444932226,
          "lat": -28.7904386774179
        }
      },
      {
        "id": "74007",
        "nombre": "Ayacucho",
        "nombre_completo": "Departamento Ayacucho",
        "provincia": {
          "id": "74",
          "nombre": "San Luis",
          "interseccion": 0.106278175822297
        },
        "fuente": "IGN",
        "categoria": "Departamento",
        "centroide": {
          "lon": -66.5423618070089,
          "lat": -32.1657217092103
        }
      },
      {
        "id": "22036",
        "nombre": "12 de Octubre",
        "nombre_completo": "Departamento 12 de Octubre",
        "provincia": {
          "id": "22",
          "nombre": "Chaco",
          "interseccion": 0.0279260582227247
        },
        "fuente": "IGN",
        "categoria": "Departamento",
        "centroide": {
          "lon": -61.4758065480051,
          "lat": -27.3333760774448
        }
      },
      {
        "id": "14175",
        "nombre": "Tulumba",
        "nombre_completo": "Departamento Tulumba",
        "provincia": {
          "id": "14",
          "nombre": "Córdoba",
          "interseccion": 0.057892422571753
        },
        "fuente": "IGN",
        "categoria": "Departamento",
        "centroide": {
          "lon": -63.8287887197042,
          "lat": -30.2195169248248
        }
      },
      {
        "id": "14028",
        "nombre": "Cruz del Eje",
        "nombre_completo": "Departamento Cruz del Eje",
        "provincia": {
          "id": "14",
          "nombre": "Córdoba",
          "interseccion": 0.0408160201155746
        },
        "fuente": "IGN",
        "categoria": "Departamento",
        "centroide": {
          "lon": -65.0782065927095,
          "lat": -30.6567576546802
        }
      },
      {
        "id": "14091",
        "nombre": "Punilla",
        "nombre_completo": "Departamento Punilla",
        "provincia": {
          "id": "14",
          "nombre": "Córdoba",
          "interseccion": 0.0148953248883072
        },
        "fuente": "IGN",
        "categoria": "Departamento",
        "centroide": {
          "lon": -64.5858722176043,
          "lat": -31.2187582835824
        }
      },
      {
        "id": "02042",
        "nombre": "Comuna 6",
        "nombre_completo": "Comuna 6",
        "provincia": {
          "id": "02",
          "nombre": "Ciudad Autónoma de Buenos Aires",
          "interseccion": 0.0333181494150591
        },
        "fuente": "IGN",
        "categoria": "Comuna",
        "centroide": {
          "lon": -58.4435682279951,
          "lat": -34.6168433901026
        }
      },
      {
        "id": "50112",
        "nombre": "Santa Rosa",
        "nombre_completo": "Departamento Santa Rosa",
        "provincia": {
          "id": "50",
          "nombre": "Mendoza",
          "interseccion": 0.0586184004432736
        },
        "fuente": "IGN",
        "categoria": "Departamento",
        "centroide": {
          "lon": -67.9638561142682,
          "lat": -33.6169989146657
        }
      },
      {
        "id": "22063",
        "nombre": "General Güemes",
        "nombre_completo": "Departamento General Güemes",
        "provincia": {
          "id": "22",
          "nombre": "Chaco",
          "interseccion": 0.255729006853091
        },
        "fuente": "IGN",
        "categoria": "Departamento",
        "centroide": {
          "lon": -61.3344270231873,
          "lat": -25.212576905898
        }
      },
      {
        "id": "46084",
        "nombre": "General Ortiz de Ocampo",
        "nombre_completo": "Departamento General Ortiz de Ocampo",
        "provincia": {
          "id": "46",
          "nombre": "La Rioja",
          "interseccion": 0.0414401905623246
        },
        "fuente": "IGN",
        "categoria": "Departamento",
        "centroide": {
          "lon": -66.0589849758729,
          "lat": -31.0067607030974
        }
      },
      {
        "id": "14035",
        "nombre": "General Roca",
        "nombre_completo": "Departamento General Roca",
        "provincia": {
          "id": "14",
          "nombre": "Córdoba",
          "interseccion": 0.0792845911385047
        },
        "fuente": "IGN",
        "categoria": "Departamento",
        "centroide": {
          "lon": -64.3730221441911,
          "lat": -34.6231276675475
        }
      },
      {
        "id": "34042",
        "nombre": "Pilagás",
        "nombre_completo": "Departamento Pilagás",
        "provincia": {
          "id": "34",
          "nombre": "Formosa",
          "interseccion": 0.0454733739158722
        },
        "fuente": "IGN",
        "categoria": "Departamento",
        "centroide": {
          "lon": -58.6616277481182,
          "lat": -25.1053773069172
        }
      },
      {
        "id": "34021",
        "nombre": "Laishi",
        "nombre_completo": "Departamento Laishi",
        "provincia": {
          "id": "34",
          "nombre": "Formosa",
          "interseccion": 0.0481299119517497
        },
        "fuente": "IGN",
        "categoria": "Departamento",
        "centroide": {
          "lon": -58.5654632415076,
          "lat": -26.4675822193402
        }
      },
      {
        "id": "50084",
        "nombre": "Rivadavia",
        "nombre_completo": "Departamento Rivadavia",
        "provincia": {
          "id": "50",
          "nombre": "Mendoza",
          "interseccion": 0.0139379904315996
        },
        "fuente": "IGN",
        "categoria": "Departamento",
        "centroide": {
          "lon": -68.6049732994365,
          "lat": -33.4170768899779
        }
      },
      {
        "id": "06819",
        "nombre": "Tornquist",
        "nombre_completo": "Partido de Tornquist",
        "provincia": {
          "id": "06",
          "nombre": "Buenos Aires",
          "interseccion": 0.0138642275437942
        },
        "fuente": "IGN",
        "categoria": "Partido",
        "centroide": {
          "lon": -62.2905659977374,
          "lat": -38.2576421634805
        }
      },
      {
        "id": "50042",
        "nombre": "La Paz",
        "nombre_completo": "Departamento La Paz",
        "provincia": {
          "id": "50",
          "nombre": "Mendoza",
          "interseccion": 0.0499951009727235
        },
        "fuente": "IGN",
        "categoria": "Departamento",
        "centroide": {
          "lon": -67.2497236922759,
          "lat": -33.7012853202088
        }
      },
      {
        "id": "06196",
        "nombre": "Coronel Pringles",
        "nombre_completo": "Partido de Coronel Pringles",
        "provincia": {
          "id": "06",
          "nombre": "Buenos Aires",
          "interseccion": 0.0174995044798141
        },
        "fuente": "IGN",
        "categoria": "Partido",
        "centroide": {
          "lon": -61.2644174529926,
          "lat": -38.1479172688233
        }
      },
      {
        "id": "62028",
        "nombre": "Conesa",
        "nombre_completo": "Departamento Conesa",
        "provincia": {
          "id": "62",
          "nombre": "Río Negro",
          "interseccion": 0.0482212733289042
        },
        "fuente": "IGN",
        "categoria": "Departamento",
        "centroide": {
          "lon": -64.3049127228304,
          "lat": -40.1487161931233
        }
      },
      {
        "id": "06875",
        "nombre": "Villarino",
        "nombre_completo": "Partido de Villarino",
        "provincia": {
          "id": "06",
          "nombre": "Buenos Aires",
          "interseccion": 0.0352925528699862
        },
        "fuente": "IGN",
        "categoria": "Partido",
        "centroide": {
          "lon": -62.7245989548872,
          "lat": -39.1285652325867
        }
      },
      {
        "id": "34056",
        "nombre": "Pirané",
        "nombre_completo": "Departamento Pirané",
        "provincia": {
          "id": "34",
          "nombre": "Formosa",
          "interseccion": 0.11512914511408
        },
        "fuente": "IGN",
        "categoria": "Departamento",
        "centroide": {
          "lon": -59.1592563969217,
          "lat": -25.7672913544641
        }
      },
      {
        "id": "06351",
        "nombre": "General Pinto",
        "nombre_completo": "Partido de General Pinto",
        "provincia": {
          "id": "06",
          "nombre": "Buenos Aires",
          "interseccion": 0.00811763944867903
        },
        "fuente": "IGN",
        "categoria": "Partido",
        "centroide": {
          "lon": -62.0398536742269,
          "lat": -34.6696214541604
        }
      },
      {
        "id": "06742",
        "nombre": "San Cayetano",
        "nombre_completo": "Partido de San Cayetano",
        "provincia": {
          "id": "06",
          "nombre": "Buenos Aires",
          "interseccion": 0.0100105599605396
        },
        "fuente": "IGN",
        "categoria": "Partido",
        "centroide": {
          "lon": -59.5863264400332,
          "lat": -38.3890731972465
        }
      },
      {
        "id": "06833",
        "nombre": "Tres Arroyos",
        "nombre_completo": "Partido de Tres Arroyos",
        "provincia": {
          "id": "06",
          "nombre": "Buenos Aires",
          "interseccion": 0.0198292203846159
        },
        "fuente": "IGN",
        "categoria": "Partido",
        "centroide": {
          "lon": -60.2374173247047,
          "lat": -38.5118142752579
        }
      },
      {
        "id": "06189",
        "nombre": "Coronel Dorrego",
        "nombre_completo": "Partido de Coronel Dorrego",
        "provincia": {
          "id": "06",
          "nombre": "Buenos Aires",
          "interseccion": 0.0195963244139277
        },
        "fuente": "IGN",
        "categoria": "Partido",
        "centroide": {
          "lon": -61.0955505728699,
          "lat": -38.6708176079735
        }
      },
      {
        "id": "06581",
        "nombre": "Necochea",
        "nombre_completo": "Partido de Necochea",
        "provincia": {
          "id": "06",
          "nombre": "Buenos Aires",
          "interseccion": 0.0152226826107829
        },
        "fuente": "IGN",
        "categoria": "Partido",
        "centroide": {
          "lon": -59.1673869468897,
          "lat": -38.2554110045679
        }
      },
      {
        "id": "46105",
        "nombre": "Independencia",
        "nombre_completo": "Departamento Independencia",
        "provincia": {
          "id": "46",
          "nombre": "La Rioja",
          "interseccion": 0.0771605899117996
        },
        "fuente": "IGN",
        "categoria": "Departamento",
        "centroide": {
          "lon": -67.3355098029644,
          "lat": -30.1144556417024
        }
      },
      {
        "id": "06218",
        "nombre": "Chascomús",
        "nombre_completo": "Partido de Chascomús",
        "provincia": {
          "id": "06",
          "nombre": "Buenos Aires",
          "interseccion": 0.0101799067954983
        },
        "fuente": "IGN",
        "categoria": "Partido",
        "centroide": {
          "lon": -57.9039810685242,
          "lat": -35.6186883086057
        }
      },
      {
        "id": "06655",
        "nombre": "Punta Indio",
        "nombre_completo": "Partido de Punta Indio",
        "provincia": {
          "id": "06",
          "nombre": "Buenos Aires",
          "interseccion": 0.00516090096133198
        },
        "fuente": "IGN",
        "categoria": "Partido",
        "centroide": {
          "lon": -57.3992340402061,
          "lat": -35.4260558765566
        }
      },
      {
        "id": "38014",
        "nombre": "El Carmen",
        "nombre_completo": "Departamento El Carmen",
        "provincia": {
          "id": "38",
          "nombre": "Jujuy",
          "interseccion": 0.0172169730879855
        },
        "fuente": "IGN",
        "categoria": "Departamento",
        "centroide": {
          "lon": -65.1012859046503,
          "lat": -24.4475372667752
        }
      },
      {
        "id": "14147",
        "nombre": "Santa María",
        "nombre_completo": "Departamento Santa María",
        "provincia": {
          "id": "14",
          "nombre": "Córdoba",
          "interseccion": 0.0196554287066734
        },
        "fuente": "IGN",
        "categoria": "Departamento",
        "centroide": {
          "lon": -64.3059021632813,
          "lat": -31.7097123126909
        }
      },
      {
        "id": "62084",
        "nombre": "Valcheta",
        "nombre_completo": "Departamento Valcheta",
        "provincia": {
          "id": "62",
          "nombre": "Río Negro",
          "interseccion": 0.105372741669725
        },
        "fuente": "IGN",
        "categoria": "Departamento",
        "centroide": {
          "lon": -66.3108907979663,
          "lat": -40.9744584304307
        }
      },
      {
        "id": "46007",
        "nombre": "Arauco",
        "nombre_completo": "Departamento Arauco",
        "provincia": {
          "id": "46",
          "nombre": "La Rioja",
          "interseccion": 0.0273199282584487
        },
        "fuente": "IGN",
        "categoria": "Departamento",
        "centroide": {
          "lon": -66.7191026010202,
          "lat": -28.5330436663011
        }
      },
      {
        "id": "06466",
        "nombre": "Lezama",
        "nombre_completo": "Partido de Lezama",
        "provincia": {
          "id": "06",
          "nombre": "Buenos Aires",
          "interseccion": 0.00338477188334675
        },
        "fuente": "IGN",
        "categoria": "Partido",
        "centroide": {
          "lon": -57.8948443895452,
          "lat": -35.8492083919939
        }
      },
      {
        "id": "06126",
        "nombre": "Campana",
        "nombre_completo": "Partido de Campana",
        "provincia": {
          "id": "06",
          "nombre": "Buenos Aires",
          "interseccion": 0.00312248509034623
        },
        "fuente": "IGN",
        "categoria": "Partido",
        "centroide": {
          "lon": -58.8829573786215,
          "lat": -34.1383889592817
        }
      },
      {
        "id": "78042",
        "nombre": "Magallanes",
        "nombre_completo": "Departamento Magallanes",
        "provincia": {
          "id": "78",
          "nombre": "Santa Cruz",
          "interseccion": 0.0831418974898388
        },
        "fuente": "IGN",
        "categoria": "Departamento",
        "centroide": {
          "lon": -68.4681621290535,
          "lat": -48.8383418227095
        }
      },
      {
        "id": "78007",
        "nombre": "Corpen Aike",
        "nombre_completo": "Departamento Corpen Aike",
        "provincia": {
          "id": "78",
          "nombre": "Santa Cruz",
          "interseccion": 0.10981688469524
        },
        "fuente": "IGN",
        "categoria": "Departamento",
        "centroide": {
          "lon": -69.4469507226845,
          "lat": -49.9474837008291
        }
      },
      {
        "id": "14070",
        "nombre": "Minas",
        "nombre_completo": "Departamento Minas",
        "provincia": {
          "id": "14",
          "nombre": "Córdoba",
          "interseccion": 0.0214267460678437
        },
        "fuente": "IGN",
        "categoria": "Departamento",
        "centroide": {
          "lon": -65.4119724397194,
          "lat": -31.0350313100891
        }
      },
      {
        "id": "14126",
        "nombre": "San Alberto",
        "nombre_completo": "Departamento San Alberto",
        "provincia": {
          "id": "14",
          "nombre": "Córdoba",
          "interseccion": 0.0204837249294779
        },
        "fuente": "IGN",
        "categoria": "Departamento",
        "centroide": {
          "lon": -65.1565147370037,
          "lat": -31.7080283283874
        }
      },
      {
        "id": "14119",
        "nombre": "Río Segundo",
        "nombre_completo": "Departamento Río Segundo",
        "provincia": {
          "id": "14",
          "nombre": "Córdoba",
          "interseccion": 0.0311408577814357
        },
        "fuente": "IGN",
        "categoria": "Departamento",
        "centroide": {
          "lon": -63.4748555205649,
          "lat": -31.7331087895549
        }
      },
      {
        "id": "14140",
        "nombre": "San Justo",
        "nombre_completo": "Departamento San Justo",
        "provincia": {
          "id": "14",
          "nombre": "Córdoba",
          "interseccion": 0.0934948511657996
        },
        "fuente": "IGN",
        "categoria": "Departamento",
        "centroide": {
          "lon": -62.5275890566991,
          "lat": -31.242567096662
        }
      },
      {
        "id": "14182",
        "nombre": "Unión",
        "nombre_completo": "Departamento Unión",
        "provincia": {
          "id": "14",
          "nombre": "Córdoba",
          "interseccion": 0.0666387409727991
        },
        "fuente": "IGN",
        "categoria": "Departamento",
        "centroide": {
          "lon": -62.7915970558691,
          "lat": -32.8783816611385
        }
      },
      {
        "id": "14161",
        "nombre": "Tercero Arriba",
        "nombre_completo": "Departamento Tercero Arriba",
        "provincia": {
          "id": "14",
          "nombre": "Córdoba",
          "interseccion": 0.0312458983469851
        },
        "fuente": "IGN",
        "categoria": "Departamento",
        "centroide": {
          "lon": -63.77900489607,
          "lat": -32.2876800226932
        }
      },
      {
        "id": "66035",
        "nombre": "Cerrillos",
        "nombre_completo": "Departamento Cerrillos",
        "provincia": {
          "id": "66",
          "nombre": "Salta",
          "interseccion": 0.00349658406422265
        },
        "fuente": "IGN",
        "categoria": "Departamento",
        "centroide": {
          "lon": -65.4038161087861,
          "lat": -24.9885439364757
        }
      },
      {
        "id": "14098",
        "nombre": "Río Cuarto",
        "nombre_completo": "Departamento Río Cuarto",
        "provincia": {
          "id": "14",
          "nombre": "Córdoba",
          "interseccion": 0.114106099222601
        },
        "fuente": "IGN",
        "categoria": "Departamento",
        "centroide": {
          "lon": -64.4931343088767,
          "lat": -33.330534188986
        }
      },
      {
        "id": "50126",
        "nombre": "Tupungato",
        "nombre_completo": "Departamento Tupungato",
        "provincia": {
          "id": "50",
          "nombre": "Mendoza",
          "interseccion": 0.0162120665860152
        },
        "fuente": "IGN",
        "categoria": "Departamento",
        "centroide": {
          "lon": -69.2962859030556,
          "lat": -33.2934009869539
        }
      },
      {
        "id": "62049",
        "nombre": "9 de Julio",
        "nombre_completo": "Departamento 9 de Julio",
        "provincia": {
          "id": "62",
          "nombre": "Río Negro",
          "interseccion": 0.119904659457391
        },
        "fuente": "IGN",
        "categoria": "Departamento",
        "centroide": {
          "lon": -67.4574916560521,
          "lat": -40.9255514713631
        }
      },
      {
        "id": "62056",
        "nombre": "Ñorquinco",
        "nombre_completo": "Departamento Ñorquinco",
        "provincia": {
          "id": "62",
          "nombre": "Río Negro",
          "interseccion": 0.0415805790545364
        },
        "fuente": "IGN",
        "categoria": "Departamento",
        "centroide": {
          "lon": -70.4011459093449,
          "lat": -41.7398229279456
        }
      },
      {
        "id": "50105",
        "nombre": "San Rafael",
        "nombre_completo": "Departamento San Rafael",
        "provincia": {
          "id": "50",
          "nombre": "Mendoza",
          "interseccion": 0.211139849973339
        },
        "fuente": "IGN",
        "categoria": "Departamento",
        "centroide": {
          "lon": -68.384239783985,
          "lat": -34.9454490543358
        }
      },
      {
        "id": "66007",
        "nombre": "Anta",
        "nombre_completo": "Departamento Anta",
        "provincia": {
          "id": "66",
          "nombre": "Salta",
          "interseccion": 0.145436111821103
        },
        "fuente": "IGN",
        "categoria": "Departamento",
        "centroide": {
          "lon": -63.8397263286188,
          "lat": -24.8754563539578
        }
      },
      {
        "id": "58098",
        "nombre": "Picún Leufú",
        "nombre_completo": "Departamento Picún Leufú",
        "provincia": {
          "id": "58",
          "nombre": "Neuquén",
          "interseccion": 0.0492045720295733
        },
        "fuente": "IGN",
        "categoria": "Departamento",
        "centroide": {
          "lon": -69.427190720517,
          "lat": -39.4039652237483
        }
      },
      {
        "id": "58112",
        "nombre": "Zapala",
        "nombre_completo": "Departamento Zapala",
        "provincia": {
          "id": "58",
          "nombre": "Neuquén",
          "interseccion": 0.0554898960703076
        },
        "fuente": "IGN",
        "categoria": "Departamento",
        "centroide": {
          "lon": -69.8223682005858,
          "lat": -38.9221765260283
        }
      },
      {
        "id": "62091",
        "nombre": "25 de Mayo",
        "nombre_completo": "Departamento 25 de Mayo",
        "provincia": {
          "id": "62",
          "nombre": "Río Negro",
          "interseccion": 0.138158602752717
        },
        "fuente": "IGN",
        "categoria": "Departamento",
        "centroide": {
          "lon": -68.9063262041627,
          "lat": -41.1330450365746
        }
      },
      {
        "id": "26105",
        "nombre": "Telsen",
        "nombre_completo": "Departamento Telsen",
        "provincia": {
          "id": "26",
          "nombre": "Chubut",
          "interseccion": 0.0847837179369281
        },
        "fuente": "IGN",
        "categoria": "Departamento",
        "centroide": {
          "lon": -67.176877305263,
          "lat": -42.4388519406853
        }
      },
      {
        "id": "62070",
        "nombre": "Pilcaniyeu",
        "nombre_completo": "Departamento Pilcaniyeu",
        "provincia": {
          "id": "62",
          "nombre": "Río Negro",
          "interseccion": 0.0546961572017353
        },
        "fuente": "IGN",
        "categoria": "Departamento",
        "centroide": {
          "lon": -70.4627105357719,
          "lat": -40.8875523576138
        }
      },
      {
        "id": "06007",
        "nombre": "Adolfo Alsina",
        "nombre_completo": "Partido de Adolfo Alsina",
        "provincia": {
          "id": "06",
          "nombre": "Buenos Aires",
          "interseccion": 0.0193344193827032
        },
        "fuente": "IGN",
        "categoria": "Partido",
        "centroide": {
          "lon": -63.0560551528803,
          "lat": -37.196762082356
        }
      },
      {
        "id": "50014",
        "nombre": "General Alvear",
        "nombre_completo": "Departamento General Alvear",
        "provincia": {
          "id": "50",
          "nombre": "Mendoza",
          "interseccion": 0.0994853305721354
        },
        "fuente": "IGN",
        "categoria": "Departamento",
        "centroide": {
          "lon": -67.0805881742222,
          "lat": -35.2188456896959
        }
      },
      {
        "id": "66077",
        "nombre": "La Caldera",
        "nombre_completo": "Departamento La Caldera",
        "provincia": {
          "id": "66",
          "nombre": "Salta",
          "interseccion": 0.00704116329537906
        },
        "fuente": "IGN",
        "categoria": "Departamento",
        "centroide": {
          "lon": -65.4290994435937,
          "lat": -24.5623996239199
        }
      },
      {
        "id": "22154",
        "nombre": "Sargento Cabral",
        "nombre_completo": "Departamento Sargento Cabral",
        "provincia": {
          "id": "22",
          "nombre": "Chaco",
          "interseccion": 0.0166057700364561
        },
        "fuente": "IGN",
        "categoria": "Departamento",
        "centroide": {
          "lon": -59.5191057139149,
          "lat": -26.7997133020842
        }
      },
      {
        "id": "06616",
        "nombre": "Pellegrini",
        "nombre_completo": "Partido de Pellegrini",
        "provincia": {
          "id": "06",
          "nombre": "Buenos Aires",
          "interseccion": 0.00591539355058322
        },
        "fuente": "IGN",
        "categoria": "Partido",
        "centroide": {
          "lon": -63.2257521123403,
          "lat": -36.2711917055859
        }
      },
      {
        "id": "58007",
        "nombre": "Aluminé",
        "nombre_completo": "Departamento Aluminé",
        "provincia": {
          "id": "58",
          "nombre": "Neuquén",
          "interseccion": 0.0505556716084217
        },
        "fuente": "IGN",
        "categoria": "Departamento",
        "centroide": {
          "lon": -71.0463179632078,
          "lat": -39.1314863536249
        }
      },
      {
        "id": "66070",
        "nombre": "Iruya",
        "nombre_completo": "Departamento Iruya",
        "provincia": {
          "id": "66",
          "nombre": "Salta",
          "interseccion": 0.0224752365703669
        },
        "fuente": "IGN",
        "categoria": "Departamento",
        "centroide": {
          "lon": -64.9205141250691,
          "lat": -22.8153452313602
        }
      },
      {
        "id": "58056",
        "nombre": "Lácar",
        "nombre_completo": "Departamento Lácar",
        "provincia": {
          "id": "58",
          "nombre": "Neuquén",
          "interseccion": 0.0539400037312572
        },
        "fuente": "IGN",
        "categoria": "Departamento",
        "centroide": {
          "lon": -71.1842639628873,
          "lat": -40.314223088982
        }
      },
      {
        "id": "10063",
        "nombre": "Fray Mamerto Esquiú",
        "nombre_completo": "Departamento Fray Mamerto Esquiú",
        "provincia": {
          "id": "10",
          "nombre": "Catamarca",
          "interseccion": 0.00184457359783941
        },
        "fuente": "IGN",
        "categoria": "Departamento",
        "centroide": {
          "lon": -65.731187897962,
          "lat": -28.3343382720204
        }
      },
      {
        "id": "10112",
        "nombre": "Valle Viejo",
        "nombre_completo": "Departamento Valle Viejo",
        "provincia": {
          "id": "10",
          "nombre": "Catamarca",
          "interseccion": 0.00603917516405666
        },
        "fuente": "IGN",
        "categoria": "Departamento",
        "centroide": {
          "lon": -65.7079324164837,
          "lat": -28.6000684837485
        }
      },
      {
        "id": "18133",
        "nombre": "San Cosme",
        "nombre_completo": "Departamento San Cosme",
        "provincia": {
          "id": "18",
          "nombre": "Corrientes",
          "interseccion": 0.00656267965068599
        },
        "fuente": "IGN",
        "categoria": "Departamento",
        "centroide": {
          "lon": -58.5174742251831,
          "lat": -27.3822986767274
        }
      },
      {
        "id": "26091",
        "nombre": "Sarmiento",
        "nombre_completo": "Departamento Sarmiento",
        "provincia": {
          "id": "26",
          "nombre": "Chubut",
          "interseccion": 0.0665702915851048
        },
        "fuente": "IGN",
        "categoria": "Departamento",
        "centroide": {
          "lon": -69.0028400019161,
          "lat": -45.3450926864638
        }
      },
      {
        "id": "02007",
        "nombre": "Comuna 1",
        "nombre_completo": "Comuna 1",
        "provincia": {
          "id": "02",
          "nombre": "Ciudad Autónoma de Buenos Aires",
          "interseccion": 0.0871020054010277
        },
        "fuente": "IGN",
        "categoria": "Comuna",
        "centroide": {
          "lon": -58.3715117424742,
          "lat": -34.6064435423382
        }
      },
      {
        "id": "02028",
        "nombre": "Comuna 4",
        "nombre_completo": "Comuna 4",
        "provincia": {
          "id": "02",
          "nombre": "Ciudad Autónoma de Buenos Aires",
          "interseccion": 0.110184004602526
        },
        "fuente": "IGN",
        "categoria": "Comuna",
        "centroide": {
          "lon": -58.3875614030278,
          "lat": -34.6421128950646
        }
      },
      {
        "id": "62035",
        "nombre": "El Cuy",
        "nombre_completo": "Departamento El Cuy",
        "provincia": {
          "id": "62",
          "nombre": "Río Negro",
          "interseccion": 0.105337615212612
        },
        "fuente": "IGN",
        "categoria": "Departamento",
        "centroide": {
          "lon": -68.4827895211107,
          "lat": -39.7003601698155
        }
      },
      {
        "id": "50049",
        "nombre": "Las Heras",
        "nombre_completo": "Departamento Las Heras",
        "provincia": {
          "id": "50",
          "nombre": "Mendoza",
          "interseccion": 0.0581331025066242
        },
        "fuente": "IGN",
        "categoria": "Departamento",
        "centroide": {
          "lon": -69.2679113756459,
          "lat": -32.5246239358788
        }
      },
      {
        "id": "22161",
        "nombre": "Tapenagá",
        "nombre_completo": "Departamento Tapenagá",
        "provincia": {
          "id": "22",
          "nombre": "Chaco",
          "interseccion": 0.0606632712473233
        },
        "fuente": "IGN",
        "categoria": "Departamento",
        "centroide": {
          "lon": -59.827840211346,
          "lat": -27.6596299369227
        }
      },
      {
        "id": "50056",
        "nombre": "Lavalle",
        "nombre_completo": "Departamento Lavalle",
        "provincia": {
          "id": "50",
          "nombre": "Mendoza",
          "interseccion": 0.0661755198742047
        },
        "fuente": "IGN",
        "categoria": "Departamento",
        "centroide": {
          "lon": -67.8966912637568,
          "lat": -32.5754675617188
        }
      },
      {
        "id": "50077",
        "nombre": "Malargüe",
        "nombre_completo": "Departamento Malargüe",
        "provincia": {
          "id": "50",
          "nombre": "Mendoza",
          "interseccion": 0.277196747900819
        },
        "fuente": "IGN",
        "categoria": "Departamento",
        "centroide": {
          "lon": -69.3130810458033,
          "lat": -36.1589400383152
        }
      },
      {
        "id": "14084",
        "nombre": "Presidente Roque Sáenz Peña",
        "nombre_completo": "Departamento Presidente Roque Sáenz Peña",
        "provincia": {
          "id": "14",
          "nombre": "Córdoba",
          "interseccion": 0.0511816720285519
        },
        "fuente": "IGN",
        "categoria": "Departamento",
        "centroide": {
          "lon": -63.4188652087471,
          "lat": -34.1404893695479
        }
      },
      {
        "id": "58021",
        "nombre": "Catán Lil",
        "nombre_completo": "Departamento Catán Lil",
        "provincia": {
          "id": "58",
          "nombre": "Neuquén",
          "interseccion": 0.0589853516427022
        },
        "fuente": "IGN",
        "categoria": "Departamento",
        "centroide": {
          "lon": -70.4335593332114,
          "lat": -39.4807942919835
        }
      },
      {
        "id": "22119",
        "nombre": "Presidencia de la Plaza",
        "nombre_completo": "Departamento Presidencia de la Plaza",
        "provincia": {
          "id": "22",
          "nombre": "Chaco",
          "interseccion": 0.0226360157126791
        },
        "fuente": "IGN",
        "categoria": "Departamento",
        "centroide": {
          "lon": -59.7745640420007,
          "lat": -27.0446247369186
        }
      },
      {
        "id": "02035",
        "nombre": "Comuna 5",
        "nombre_completo": "Comuna 5",
        "provincia": {
          "id": "02",
          "nombre": "Ciudad Autónoma de Buenos Aires",
          "interseccion": 0.0323918836977123
        },
        "fuente": "IGN",
        "categoria": "Comuna",
        "centroide": {
          "lon": -58.4205721902504,
          "lat": -34.6173699237915
        }
      },
      {
        "id": "18049",
        "nombre": "Esquina",
        "nombre_completo": "Departamento Esquina",
        "provincia": {
          "id": "18",
          "nombre": "Corrientes",
          "interseccion": 0.0445714743057892
        },
        "fuente": "IGN",
        "categoria": "Departamento",
        "centroide": {
          "lon": -59.2413818424126,
          "lat": -29.985327366863
        }
      },
      {
        "id": "94015",
        "nombre": "Ushuaia",
        "nombre_completo": "Departamento Ushuaia",
        "provincia": {
          "id": "94",
          "nombre": "Tierra del Fuego, Antártida e Islas del Atlántico Sur",
          "interseccion": 0.00189501966492348
        },
        "fuente": "IGN",
        "categoria": "Departamento",
        "centroide": {
          "lon": -66.6836200601613,
          "lat": -54.7704676359158
        }
      },
      {
        "id": "10028",
        "nombre": "Antofagasta de la Sierra",
        "nombre_completo": "Departamento Antofagasta de la Sierra",
        "provincia": {
          "id": "10",
          "nombre": "Catamarca",
          "interseccion": 0.274022148805053
        },
        "fuente": "IGN",
        "categoria": "Departamento",
        "centroide": {
          "lon": -67.6778798484787,
          "lat": -25.9467556410811
        }
      },
      {
        "id": "06245",
        "nombre": "Ensenada",
        "nombre_completo": "Partido de Ensenada",
        "provincia": {
          "id": "06",
          "nombre": "Buenos Aires",
          "interseccion": 0.000362355107379883
        },
        "fuente": "IGN",
        "categoria": "Partido",
        "centroide": {
          "lon": -57.9791090925538,
          "lat": -34.8421497421872
        }
      },
      {
        "id": "90084",
        "nombre": "Capital",
        "nombre_completo": "Departamento Capital",
        "provincia": {
          "id": "90",
          "nombre": "Tucumán",
          "interseccion": 0.00403200129994109
        },
        "fuente": "IGN",
        "categoria": "Departamento",
        "centroide": {
          "lon": -65.2170208037282,
          "lat": -26.8332209186353
        }
      },
      {
        "id": "82007",
        "nombre": "Belgrano",
        "nombre_completo": "Departamento Belgrano",
        "provincia": {
          "id": "82",
          "nombre": "Santa Fe",
          "interseccion": 0.0187400489977133
        },
        "fuente": "IGN",
        "categoria": "Departamento",
        "centroide": {
          "lon": -61.7047364516353,
          "lat": -32.6104361547012
        }
      },
      {
        "id": "06623",
        "nombre": "Pergamino",
        "nombre_completo": "Partido de Pergamino",
        "provincia": {
          "id": "06",
          "nombre": "Buenos Aires",
          "interseccion": 0.00948034134183856
        },
        "fuente": "IGN",
        "categoria": "Partido",
        "centroide": {
          "lon": -60.5447828161659,
          "lat": -33.8360668139653
        }
      },
      {
        "id": "06651",
        "nombre": "Puán",
        "nombre_completo": "Partido de Puán",
        "provincia": {
          "id": "06",
          "nombre": "Buenos Aires",
          "interseccion": 0.0212075107214444
        },
        "fuente": "IGN",
        "categoria": "Partido",
        "centroide": {
          "lon": -63.0574326099086,
          "lat": -38.0760763207387
        }
      },
      {
        "id": "06392",
        "nombre": "General Villegas",
        "nombre_completo": "Partido de General Villegas",
        "provincia": {
          "id": "06",
          "nombre": "Buenos Aires",
          "interseccion": 0.0230643517196852
        },
        "fuente": "IGN",
        "categoria": "Partido",
        "centroide": {
          "lon": -62.9541988413061,
          "lat": -34.7702605023112
        }
      },
      {
        "id": "02084",
        "nombre": "Comuna 12",
        "nombre_completo": "Comuna 12",
        "provincia": {
          "id": "02",
          "nombre": "Ciudad Autónoma de Buenos Aires",
          "interseccion": 0.0759370848662676
        },
        "fuente": "IGN",
        "categoria": "Comuna",
        "centroide": {
          "lon": -58.4904280414968,
          "lat": -34.5662276068999
        }
      },
      {
        "id": "82049",
        "nombre": "General Obligado",
        "nombre_completo": "Departamento General Obligado",
        "provincia": {
          "id": "82",
          "nombre": "Santa Fe",
          "interseccion": 0.0815310573765514
        },
        "fuente": "IGN",
        "categoria": "Departamento",
        "centroide": {
          "lon": -59.5266963989458,
          "lat": -28.672536399396
        }
      },
      {
        "id": "82133",
        "nombre": "Vera",
        "nombre_completo": "Departamento Vera",
        "provincia": {
          "id": "82",
          "nombre": "Santa Fe",
          "interseccion": 0.152750984634252
        },
        "fuente": "IGN",
        "categoria": "Departamento",
        "centroide": {
          "lon": -60.4136679252075,
          "lat": -28.9706345150851
        }
      },
      {
        "id": "82077",
        "nombre": "9 de Julio",
        "nombre_completo": "Departamento 9 de Julio",
        "provincia": {
          "id": "82",
          "nombre": "Santa Fe",
          "interseccion": 0.127511919985812
        },
        "fuente": "IGN",
        "categoria": "Departamento",
        "centroide": {
          "lon": -61.3979945646643,
          "lat": -28.8486776771703
        }
      },
      {
        "id": "62007",
        "nombre": "Adolfo Alsina",
        "nombre_completo": "Departamento Adolfo Alsina",
        "provincia": {
          "id": "62",
          "nombre": "Río Negro",
          "interseccion": 0.0445239992656366
        },
        "fuente": "IGN",
        "categoria": "Departamento",
        "centroide": {
          "lon": -63.7651004404077,
          "lat": -40.7916894116905
        }
      },
      {
        "id": "22133",
        "nombre": "Quitilipi",
        "nombre_completo": "Departamento Quitilipi",
        "provincia": {
          "id": "22",
          "nombre": "Chaco",
          "interseccion": 0.015665623621735
        },
        "fuente": "IGN",
        "categoria": "Departamento",
        "centroide": {
          "lon": -60.1729742758302,
          "lat": -26.6663185244379
        }
      },
      {
        "id": "78021",
        "nombre": "Güer Aike",
        "nombre_completo": "Departamento Güer Aike",
        "provincia": {
          "id": "78",
          "nombre": "Santa Cruz",
          "interseccion": 0.145191288324871
        },
        "fuente": "IGN",
        "categoria": "Departamento",
        "centroide": {
          "lon": -70.5618155469082,
          "lat": -51.4134125039336
        }
      },
      {
        "id": "10042",
        "nombre": "Capayán",
        "nombre_completo": "Departamento Capayán",
        "provincia": {
          "id": "10",
          "nombre": "Catamarca",
          "interseccion": 0.0432963524673839
        },
        "fuente": "IGN",
        "categoria": "Departamento",
        "centroide": {
          "lon": -65.9017191021383,
          "lat": -28.9094976289814
        }
      },
      {
        "id": "90007",
        "nombre": "Burruyacú",
        "nombre_completo": "Departamento Burruyacú",
        "provincia": {
          "id": "90",
          "nombre": "Tucumán",
          "interseccion": 0.160147116921214
        },
        "fuente": "IGN",
        "categoria": "Departamento",
        "centroide": {
          "lon": -64.8195981132229,
          "lat": -26.5305481465544
        }
      },
      {
        "id": "82105",
        "nombre": "San Jerónimo",
        "nombre_completo": "Departamento San Jerónimo",
        "provincia": {
          "id": "82",
          "nombre": "Santa Fe",
          "interseccion": 0.0337711906743083
        },
        "fuente": "IGN",
        "categoria": "Departamento",
        "centroide": {
          "lon": -61.0481265782097,
          "lat": -32.1537713587336
        }
      },
      {
        "id": "22070",
        "nombre": "Independencia",
        "nombre_completo": "Departamento Independencia",
        "provincia": {
          "id": "22",
          "nombre": "Chaco",
          "interseccion": 0.0193349692759192
        },
        "fuente": "IGN",
        "categoria": "Departamento",
        "centroide": {
          "lon": -60.7563736019567,
          "lat": -26.735179032354
        }
      },
      {
        "id": "18035",
        "nombre": "Curuzú Cuatiá",
        "nombre_completo": "Departamento Curuzú Cuatiá",
        "provincia": {
          "id": "18",
          "nombre": "Corrientes",
          "interseccion": 0.0941121430129866
        },
        "fuente": "IGN",
        "categoria": "Departamento",
        "centroide": {
          "lon": -58.3248599040647,
          "lat": -29.6954668055505
        }
      },
      {
        "id": "50063",
        "nombre": "Luján de Cuyo",
        "nombre_completo": "Departamento Luján de Cuyo",
        "provincia": {
          "id": "50",
          "nombre": "Mendoza",
          "interseccion": 0.0317411828503623
        },
        "fuente": "IGN",
        "categoria": "Departamento",
        "centroide": {
          "lon": -69.4516850524047,
          "lat": -33.0384947617689
        }
      },
      {
        "id": "10105",
        "nombre": "Tinogasta",
        "nombre_completo": "Departamento Tinogasta",
        "provincia": {
          "id": "10",
          "nombre": "Catamarca",
          "interseccion": 0.223132932847979
        },
        "fuente": "IGN",
        "categoria": "Departamento",
        "centroide": {
          "lon": -67.9307422147195,
          "lat": -27.5418355834148
        }
      },
      {
        "id": "02049",
        "nombre": "Comuna 7",
        "nombre_completo": "Comuna 7",
        "provincia": {
          "id": "02",
          "nombre": "Ciudad Autónoma de Buenos Aires",
          "interseccion": 0.0604295563475675
        },
        "fuente": "IGN",
        "categoria": "Comuna",
        "centroide": {
          "lon": -58.4518868569654,
          "lat": -34.636554414358
        }
      },
      {
        "id": "42077",
        "nombre": "Hucal",
        "nombre_completo": "Departamento Hucal",
        "provincia": {
          "id": "42",
          "nombre": "La Pampa",
          "interseccion": 0.0424522790423391
        },
        "fuente": "IGN",
        "categoria": "Departamento",
        "centroide": {
          "lon": -63.9544864276514,
          "lat": -37.9792315730965
        }
      },
      {
        "id": "18077",
        "nombre": "Itatí",
        "nombre_completo": "Departamento Itatí",
        "provincia": {
          "id": "18",
          "nombre": "Corrientes",
          "interseccion": 0.00964913897414946
        },
        "fuente": "IGN",
        "categoria": "Departamento",
        "centroide": {
          "lon": -58.0713817911441,
          "lat": -27.3460559292444
        }
      },
      {
        "id": "02070",
        "nombre": "Comuna 10",
        "nombre_completo": "Comuna 10",
        "provincia": {
          "id": "02",
          "nombre": "Ciudad Autónoma de Buenos Aires",
          "interseccion": 0.0614580246122407
        },
        "fuente": "IGN",
        "categoria": "Comuna",
        "centroide": {
          "lon": -58.5028178465965,
          "lat": -34.6278517920976
        }
      },
      {
        "id": "42014",
        "nombre": "Caleu Caleu",
        "nombre_completo": "Departamento Caleu Caleu",
        "provincia": {
          "id": "42",
          "nombre": "La Pampa",
          "interseccion": 0.0649222363776537
        },
        "fuente": "IGN",
        "categoria": "Departamento",
        "centroide": {
          "lon": -63.8968185406946,
          "lat": -38.6756398635536
        }
      },
      {
        "id": "42084",
        "nombre": "Lihuel Calel",
        "nombre_completo": "Departamento Lihuel Calel",
        "provincia": {
          "id": "42",
          "nombre": "La Pampa",
          "interseccion": 0.0884286195830349
        },
        "fuente": "IGN",
        "categoria": "Departamento",
        "centroide": {
          "lon": -65.0966893102146,
          "lat": -38.2616348854642
        }
      },
      {
        "id": "42042",
        "nombre": "Curacó",
        "nombre_completo": "Departamento Curacó",
        "provincia": {
          "id": "42",
          "nombre": "La Pampa",
          "interseccion": 0.0956600669055286
        },
        "fuente": "IGN",
        "categoria": "Departamento",
        "centroide": {
          "lon": -66.330067375997,
          "lat": -38.1797329921075
        }
      },
      {
        "id": "58035",
        "nombre": "Confluencia",
        "nombre_completo": "Departamento Confluencia",
        "provincia": {
          "id": "58",
          "nombre": "Neuquén",
          "interseccion": 0.0764841375638646
        },
        "fuente": "IGN",
        "categoria": "Departamento",
        "centroide": {
          "lon": -68.7940772839278,
          "lat": -38.8322794945189
        }
      },
      {
        "id": "58105",
        "nombre": "Picunches",
        "nombre_completo": "Departamento Picunches",
        "provincia": {
          "id": "58",
          "nombre": "Neuquén",
          "interseccion": 0.0639769151041468
        },
        "fuente": "IGN",
        "categoria": "Departamento",
        "centroide": {
          "lon": -70.3729610459357,
          "lat": -38.5742773422999
        }
      },
      {
        "id": "58014",
        "nombre": "Añelo",
        "nombre_completo": "Departamento Añelo",
        "provincia": {
          "id": "58",
          "nombre": "Neuquén",
          "interseccion": 0.126937318587654
        },
        "fuente": "IGN",
        "categoria": "Departamento",
        "centroide": {
          "lon": -69.0157147264732,
          "lat": -38.0983759451619
        }
      },
      {
        "id": "58063",
        "nombre": "Loncopué",
        "nombre_completo": "Departamento Loncopué",
        "provincia": {
          "id": "58",
          "nombre": "Neuquén",
          "interseccion": 0.0578521994300578
        },
        "fuente": "IGN",
        "categoria": "Departamento",
        "centroide": {
          "lon": -70.3142327793889,
          "lat": -38.0659451614955
        }
      },
      {
        "id": "58084",
        "nombre": "Ñorquín",
        "nombre_completo": "Departamento Ñorquín",
        "provincia": {
          "id": "58",
          "nombre": "Neuquén",
          "interseccion": 0.0580030925188573
        },
        "fuente": "IGN",
        "categoria": "Departamento",
        "centroide": {
          "lon": -70.6780421229319,
          "lat": -37.6381186650332
        }
      },
      {
        "id": "58091",
        "nombre": "Pehuenches",
        "nombre_completo": "Departamento Pehuenches",
        "provincia": {
          "id": "58",
          "nombre": "Neuquén",
          "interseccion": 0.0868041193000128
        },
        "fuente": "IGN",
        "categoria": "Departamento",
        "centroide": {
          "lon": -69.4030432724945,
          "lat": -37.3984094176891
        }
      },
      {
        "id": "02077",
        "nombre": "Comuna 11",
        "nombre_completo": "Comuna 11",
        "provincia": {
          "id": "02",
          "nombre": "Ciudad Autónoma de Buenos Aires",
          "interseccion": 0.0684139030743299
        },
        "fuente": "IGN",
        "categoria": "Comuna",
        "centroide": {
          "lon": -58.4967420076817,
          "lat": -34.6061370106731
        }
      },
      {
        "id": "54084",
        "nombre": "Montecarlo",
        "nombre_completo": "Departamento Montecarlo",
        "provincia": {
          "id": "54",
          "nombre": "Misiones",
          "interseccion": 0.0588598013287838
        },
        "fuente": "IGN",
        "categoria": "Departamento",
        "centroide": {
          "lon": -54.5631774506644,
          "lat": -26.6579081868111
        }
      },
      {
        "id": "54042",
        "nombre": "Eldorado",
        "nombre_completo": "Departamento Eldorado",
        "provincia": {
          "id": "54",
          "nombre": "Misiones",
          "interseccion": 0.0573559435019427
        },
        "fuente": "IGN",
        "categoria": "Departamento",
        "centroide": {
          "lon": -54.4407363386816,
          "lat": -26.3138449972573
        }
      },
      {
        "id": "54112",
        "nombre": "San Pedro",
        "nombre_completo": "Departamento San Pedro",
        "provincia": {
          "id": "54",
          "nombre": "Misiones",
          "interseccion": 0.13614655907638
        },
        "fuente": "IGN",
        "categoria": "Departamento",
        "centroide": {
          "lon": -53.9629780421788,
          "lat": -26.62996077436
        }
      },
      {
        "id": "94028",
        "nombre": "Antártida Argentina",
        "nombre_completo": "Departamento Antártida Argentina",
        "provincia": {
          "id": "94",
          "nombre": "Tierra del Fuego, Antártida e Islas del Atlántico Sur",
          "interseccion": 0.991219629079016
        },
        "fuente": "IGN",
        "categoria": "Departamento",
        "centroide": {
          "lon": -50.6480306037361,
          "lat": -82.7776766547034
        }
      },
      {
        "id": "58077",
        "nombre": "Minas",
        "nombre_completo": "Departamento Minas",
        "provincia": {
          "id": "58",
          "nombre": "Neuquén",
          "interseccion": 0.0626477435333247
        },
        "fuente": "IGN",
        "categoria": "Departamento",
        "centroide": {
          "lon": -70.78364814983,
          "lat": -36.8585578940124
        }
      },
      {
        "id": "58042",
        "nombre": "Chos Malal",
        "nombre_completo": "Departamento Chos Malal",
        "provincia": {
          "id": "58",
          "nombre": "Neuquén",
          "interseccion": 0.0474106205664361
        },
        "fuente": "IGN",
        "categoria": "Departamento",
        "centroide": {
          "lon": -70.2863793101158,
          "lat": -36.8805641891102
        }
      },
      {
        "id": "26014",
        "nombre": "Cushamen",
        "nombre_completo": "Departamento Cushamen",
        "provincia": {
          "id": "26",
          "nombre": "Chubut",
          "interseccion": 0.0709886379754257
        },
        "fuente": "IGN",
        "categoria": "Departamento",
        "centroide": {
          "lon": -70.7119978032417,
          "lat": -42.3663973043627
        }
      },
      {
        "id": "78035",
        "nombre": "Lago Buenos Aires",
        "nombre_completo": "Departamento Lago Buenos Aires",
        "provincia": {
          "id": "78",
          "nombre": "Santa Cruz",
          "interseccion": 0.112369788230935
        },
        "fuente": "IGN",
        "categoria": "Departamento",
        "centroide": {
          "lon": -70.6313995743965,
          "lat": -46.8342043710739
        }
      },
      {
        "id": "62063",
        "nombre": "Pichi Mahuida",
        "nombre_completo": "Departamento Pichi Mahuida",
        "provincia": {
          "id": "62",
          "nombre": "Río Negro",
          "interseccion": 0.0763799624980782
        },
        "fuente": "IGN",
        "categoria": "Departamento",
        "centroide": {
          "lon": -64.4007362191104,
          "lat": -39.4076049744942
        }
      },
      {
        "id": "86175",
        "nombre": "San Martín",
        "nombre_completo": "Departamento San Martín",
        "provincia": {
          "id": "86",
          "nombre": "Santiago del Estero",
          "interseccion": 0.0131335064903253
        },
        "fuente": "IGN",
        "categoria": "Departamento",
        "centroide": {
          "lon": -63.854114579261,
          "lat": -28.1877612839021
        }
      },
      {
        "id": "38112",
        "nombre": "Yavi",
        "nombre_completo": "Departamento Yavi",
        "provincia": {
          "id": "38",
          "nombre": "Jujuy",
          "interseccion": 0.0560367790487708
        },
        "fuente": "IGN",
        "categoria": "Departamento",
        "centroide": {
          "lon": -65.5667394207971,
          "lat": -22.290645260596
        }
      },
      {
        "id": "38077",
        "nombre": "Santa Catalina",
        "nombre_completo": "Departamento Santa Catalina",
        "provincia": {
          "id": "38",
          "nombre": "Jujuy",
          "interseccion": 0.054695033618386
        },
        "fuente": "IGN",
        "categoria": "Departamento",
        "centroide": {
          "lon": -66.227261407729,
          "lat": -22.1376406851166
        }
      },
      {
        "id": "38063",
        "nombre": "San Pedro",
        "nombre_completo": "Departamento San Pedro",
        "provincia": {
          "id": "38",
          "nombre": "Jujuy",
          "interseccion": 0.0387440651547718
        },
        "fuente": "IGN",
        "categoria": "Departamento",
        "centroide": {
          "lon": -64.8109899059972,
          "lat": -24.2985083171115
        }
      },
      {
        "id": "38105",
        "nombre": "Valle Grande",
        "nombre_completo": "Departamento Valle Grande",
        "provincia": {
          "id": "38",
          "nombre": "Jujuy",
          "interseccion": 0.0227911859564914
        },
        "fuente": "IGN",
        "categoria": "Departamento",
        "centroide": {
          "lon": -65.0120193444126,
          "lat": -23.4666140607053
        }
      },
      {
        "id": "34035",
        "nombre": "Patiño",
        "nombre_completo": "Departamento Patiño",
        "provincia": {
          "id": "34",
          "nombre": "Formosa",
          "interseccion": 0.347223533242539
        },
        "fuente": "IGN",
        "categoria": "Departamento",
        "centroide": {
          "lon": -59.9584280130313,
          "lat": -24.8750081858591
        }
      },
      {
        "id": "34007",
        "nombre": "Bermejo",
        "nombre_completo": "Departamento Bermejo",
        "provincia": {
          "id": "34",
          "nombre": "Formosa",
          "interseccion": 0.182567110064141
        },
        "fuente": "IGN",
        "categoria": "Departamento",
        "centroide": {
          "lon": -61.2828611773469,
          "lat": -24.0254990220968
        }
      },
      {
        "id": "38084",
        "nombre": "Susques",
        "nombre_completo": "Departamento Susques",
        "provincia": {
          "id": "38",
          "nombre": "Jujuy",
          "interseccion": 0.191882155694169
        },
        "fuente": "IGN",
        "categoria": "Departamento",
        "centroide": {
          "lon": -66.6617118803761,
          "lat": -23.5206710927029
        }
      },
      {
        "id": "34028",
        "nombre": "Matacos",
        "nombre_completo": "Departamento Matacos",
        "provincia": {
          "id": "34",
          "nombre": "Formosa",
          "interseccion": 0.0532983170793434
        },
        "fuente": "IGN",
        "categoria": "Departamento",
        "centroide": {
          "lon": -62.0770650055764,
          "lat": -23.8544865427827
        }
      },
      {
        "id": "66105",
        "nombre": "Los Andes",
        "nombre_completo": "Departamento Los Andes",
        "provincia": {
          "id": "66",
          "nombre": "Salta",
          "interseccion": 0.162031882941599
        },
        "fuente": "IGN",
        "categoria": "Departamento",
        "centroide": {
          "lon": -67.3440956899683,
          "lat": -24.6426248978878
        }
      },
      {
        "id": "66126",
        "nombre": "Orán",
        "nombre_completo": "Departamento Orán",
        "provincia": {
          "id": "66",
          "nombre": "Salta",
          "interseccion": 0.0744679766564289
        },
        "fuente": "IGN",
        "categoria": "Departamento",
        "centroide": {
          "lon": -64.150945650256,
          "lat": -23.4987916315192
        }
      },
      {
        "id": "38094",
        "nombre": "Tilcara",
        "nombre_completo": "Departamento Tilcara",
        "provincia": {
          "id": "38",
          "nombre": "Jujuy",
          "interseccion": 0.0398919318690272
        },
        "fuente": "IGN",
        "categoria": "Departamento",
        "centroide": {
          "lon": -65.3200105901478,
          "lat": -23.5604015183698
        }
      },
      {
        "id": "38042",
        "nombre": "Palpalá",
        "nombre_completo": "Departamento Palpalá",
        "provincia": {
          "id": "38",
          "nombre": "Jujuy",
          "interseccion": 0.00922060669638629
        },
        "fuente": "IGN",
        "categoria": "Departamento",
        "centroide": {
          "lon": -65.1264498101135,
          "lat": -24.1949225166052
        }
      },
      {
        "id": "42098",
        "nombre": "Loventué",
        "nombre_completo": "Departamento Loventué",
        "provincia": {
          "id": "42",
          "nombre": "La Pampa",
          "interseccion": 0.0632271763147788
        },
        "fuente": "IGN",
        "categoria": "Departamento",
        "centroide": {
          "lon": -65.533063651288,
          "lat": -36.4785080840981
        }
      },
      {
        "id": "26084",
        "nombre": "Río Senguer",
        "nombre_completo": "Departamento Río Senguer",
        "provincia": {
          "id": "26",
          "nombre": "Chubut",
          "interseccion": 0.104668978044552
        },
        "fuente": "IGN",
        "categoria": "Departamento",
        "centroide": {
          "lon": -70.6400850098256,
          "lat": -45.3405591890669
        }
      },
      {
        "id": "62021",
        "nombre": "Bariloche",
        "nombre_completo": "Departamento Bariloche",
        "provincia": {
          "id": "62",
          "nombre": "Río Negro",
          "interseccion": 0.0272522226736633
        },
        "fuente": "IGN",
        "categoria": "Departamento",
        "centroide": {
          "lon": -71.5310863063756,
          "lat": -41.4981376652733
        }
      },
      {
        "id": "58049",
        "nombre": "Huiliches",
        "nombre_completo": "Departamento Huiliches",
        "provincia": {
          "id": "58",
          "nombre": "Neuquén",
          "interseccion": 0.0433605635228554
        },
        "fuente": "IGN",
        "categoria": "Departamento",
        "centroide": {
          "lon": -71.2590025540624,
          "lat": -39.7946776781884
        }
      },
      {
        "id": "42091",
        "nombre": "Limay Mahuida",
        "nombre_completo": "Departamento Limay Mahuida",
        "provincia": {
          "id": "42",
          "nombre": "La Pampa",
          "interseccion": 0.0700020806570264
        },
        "fuente": "IGN",
        "categoria": "Departamento",
        "centroide": {
          "lon": -66.5552326917265,
          "lat": -37.2419021199685
        }
      },
      {
        "id": "42112",
        "nombre": "Puelén",
        "nombre_completo": "Departamento Puelén",
        "provincia": {
          "id": "42",
          "nombre": "La Pampa",
          "interseccion": 0.0917966551942317
        },
        "fuente": "IGN",
        "categoria": "Departamento",
        "centroide": {
          "lon": -67.6045329036613,
          "lat": -37.4345215375332
        }
      },
      {
        "id": "42049",
        "nombre": "Chalileo",
        "nombre_completo": "Departamento Chalileo",
        "provincia": {
          "id": "42",
          "nombre": "La Pampa",
          "interseccion": 0.060842373467729
        },
        "fuente": "IGN",
        "categoria": "Departamento",
        "centroide": {
          "lon": -66.5727424085761,
          "lat": -36.395699692841
        }
      },
      {
        "id": "42063",
        "nombre": "Chical Co",
        "nombre_completo": "Departamento Chical Co",
        "provincia": {
          "id": "42",
          "nombre": "La Pampa",
          "interseccion": 0.0623433099868185
        },
        "fuente": "IGN",
        "categoria": "Departamento",
        "centroide": {
          "lon": -67.6944669009179,
          "lat": -36.3969736431163
        }
      },
      {
        "id": "86140",
        "nombre": "Quebrachos",
        "nombre_completo": "Departamento Quebrachos",
        "provincia": {
          "id": "86",
          "nombre": "Santiago del Estero",
          "interseccion": 0.0297173727865874
        },
        "fuente": "IGN",
        "categoria": "Departamento",
        "centroide": {
          "lon": -63.3484161216539,
          "lat": -29.3883234023198
        }
      },
      {
        "id": "18112",
        "nombre": "Monte Caseros",
        "nombre_completo": "Departamento Monte Caseros",
        "provincia": {
          "id": "18",
          "nombre": "Corrientes",
          "interseccion": 0.0307764860338142
        },
        "fuente": "IGN",
        "categoria": "Departamento",
        "centroide": {
          "lon": -57.870301871575,
          "lat": -30.2289612354938
        }
      },
      {
        "id": "22098",
        "nombre": "Mayor Luis J. Fontana",
        "nombre_completo": "Departamento Mayor Luis J. Fontana",
        "provincia": {
          "id": "22",
          "nombre": "Chaco",
          "interseccion": 0.0375862973135226
        },
        "fuente": "IGN",
        "categoria": "Departamento",
        "centroide": {
          "lon": -60.6567128818538,
          "lat": -27.7429616104984
        }
      },
      {
        "id": "22043",
        "nombre": "Fray Justo Santa María de Oro",
        "nombre_completo": "Departamento Fray Justo Santa María de Oro",
        "provincia": {
          "id": "22",
          "nombre": "Chaco",
          "interseccion": 0.0225438874241368
        },
        "fuente": "IGN",
        "categoria": "Departamento",
        "centroide": {
          "lon": -61.3012288739823,
          "lat": -27.8647076723602
        }
      },
      {
        "id": "46063",
        "nombre": "General Belgrano",
        "nombre_completo": "Departamento General Belgrano",
        "provincia": {
          "id": "46",
          "nombre": "La Rioja",
          "interseccion": 0.031063913680683
        },
        "fuente": "IGN",
        "categoria": "Departamento",
        "centroide": {
          "lon": -65.9324739936757,
          "lat": -30.5778081168076
        }
      },
      {
        "id": "82070",
        "nombre": "Las Colonias",
        "nombre_completo": "Departamento Las Colonias",
        "provincia": {
          "id": "82",
          "nombre": "Santa Fe",
          "interseccion": 0.0475450891415187
        },
        "fuente": "IGN",
        "categoria": "Departamento",
        "centroide": {
          "lon": -61.1094808023915,
          "lat": -31.3153379040603
        }
      },
      {
        "id": "82112",
        "nombre": "San Justo",
        "nombre_completo": "Departamento San Justo",
        "provincia": {
          "id": "82",
          "nombre": "Santa Fe",
          "interseccion": 0.0420062321204617
        },
        "fuente": "IGN",
        "categoria": "Departamento",
        "centroide": {
          "lon": -60.4886940672178,
          "lat": -30.5304248144909
        }
      },
      {
        "id": "82091",
        "nombre": "San Cristóbal",
        "nombre_completo": "Departamento San Cristóbal",
        "provincia": {
          "id": "82",
          "nombre": "Santa Fe",
          "interseccion": 0.10942431471467
        },
        "fuente": "IGN",
        "categoria": "Departamento",
        "centroide": {
          "lon": -61.3599372073841,
          "lat": -30.2283897206038
        }
      },
      {
        "id": "82098",
        "nombre": "San Javier",
        "nombre_completo": "Departamento San Javier",
        "provincia": {
          "id": "82",
          "nombre": "Santa Fe",
          "interseccion": 0.049893566156432
        },
        "fuente": "IGN",
        "categoria": "Departamento",
        "centroide": {
          "lon": -59.8980704736792,
          "lat": -30.1041461062467
        }
      },
      {
        "id": "42056",
        "nombre": "Chapaleufú",
        "nombre_completo": "Departamento Chapaleufú",
        "provincia": {
          "id": "42",
          "nombre": "La Pampa",
          "interseccion": 0.0170093667454504
        },
        "fuente": "IGN",
        "categoria": "Departamento",
        "centroide": {
          "lon": -63.6603750662124,
          "lat": -35.2298937893695
        }
      },
      {
        "id": "42133",
        "nombre": "Realicó",
        "nombre_completo": "Departamento Realicó",
        "provincia": {
          "id": "42",
          "nombre": "La Pampa",
          "interseccion": 0.0166338437862428
        },
        "fuente": "IGN",
        "categoria": "Departamento",
        "centroide": {
          "lon": -64.2098498059179,
          "lat": -35.2306620563122
        }
      },
      {
        "id": "42105",
        "nombre": "Maracó",
        "nombre_completo": "Departamento Maracó",
        "provincia": {
          "id": "42",
          "nombre": "La Pampa",
          "interseccion": 0.0171826148806006
        },
        "fuente": "IGN",
        "categoria": "Departamento",
        "centroide": {
          "lon": -63.6624899647122,
          "lat": -35.6796161112326
        }
      },
      {
        "id": "42147",
        "nombre": "Trenel",
        "nombre_completo": "Departamento Trenel",
        "provincia": {
          "id": "42",
          "nombre": "La Pampa",
          "interseccion": 0.0137273538183808
        },
        "fuente": "IGN",
        "categoria": "Departamento",
        "centroide": {
          "lon": -64.2143766255202,
          "lat": -35.631875013139
        }
      },
      {
        "id": "86056",
        "nombre": "Copo",
        "nombre_completo": "Departamento Copo",
        "provincia": {
          "id": "86",
          "nombre": "Santiago del Estero",
          "interseccion": 0.0937766069604329
        },
        "fuente": "IGN",
        "categoria": "Departamento",
        "centroide": {
          "lon": -62.7310972270609,
          "lat": -25.9391612005653
        }
      },
      {
        "id": "42021",
        "nombre": "Capital",
        "nombre_completo": "Departamento Capital",
        "provincia": {
          "id": "42",
          "nombre": "La Pampa",
          "interseccion": 0.0175767629252386
        },
        "fuente": "IGN",
        "categoria": "Departamento",
        "centroide": {
          "lon": -64.198128304565,
          "lat": -36.4980625982423
        }
      },
      {
        "id": "38070",
        "nombre": "Santa Bárbara",
        "nombre_completo": "Departamento Santa Bárbara",
        "provincia": {
          "id": "38",
          "nombre": "Jujuy",
          "interseccion": 0.0829076430130099
        },
        "fuente": "IGN",
        "categoria": "Departamento",
        "centroide": {
          "lon": -64.4023116738515,
          "lat": -24.007640144548
        }
      },
      {
        "id": "22007",
        "nombre": "Almirante Brown",
        "nombre_completo": "Departamento Almirante Brown",
        "provincia": {
          "id": "22",
          "nombre": "Chaco",
          "interseccion": 0.176482673443041
        },
        "fuente": "IGN",
        "categoria": "Departamento",
        "centroide": {
          "lon": -61.9589813624119,
          "lat": -25.7452119099225
        }
      },
      {
        "id": "66140",
        "nombre": "Rosario de la Frontera",
        "nombre_completo": "Departamento Rosario de la Frontera",
        "provincia": {
          "id": "66",
          "nombre": "Salta",
          "interseccion": 0.0353758828222837
        },
        "fuente": "IGN",
        "categoria": "Departamento",
        "centroide": {
          "lon": -64.7288089239246,
          "lat": -25.8715613006323
        }
      },
      {
        "id": "58028",
        "nombre": "Collón Curá",
        "nombre_completo": "Departamento Collón Curá",
        "provincia": {
          "id": "58",
          "nombre": "Neuquén",
          "interseccion": 0.0623305107879592
        },
        "fuente": "IGN",
        "categoria": "Departamento",
        "centroide": {
          "lon": -70.2813667759367,
          "lat": -40.0529194288429
        }
      },
      {
        "id": "02021",
        "nombre": "Comuna 3",
        "nombre_completo": "Comuna 3",
        "provincia": {
          "id": "02",
          "nombre": "Ciudad Autónoma de Buenos Aires",
          "interseccion": 0.0310554413140466
        },
        "fuente": "IGN",
        "categoria": "Comuna",
        "centroide": {
          "lon": -58.4026514511807,
          "lat": -34.6138430816924
        }
      },
      {
        "id": "06749",
        "nombre": "San Fernando",
        "nombre_completo": "Partido de San Fernando",
        "provincia": {
          "id": "06",
          "nombre": "Buenos Aires",
          "interseccion": 0.00341619505559662
        },
        "fuente": "IGN",
        "categoria": "Partido",
        "centroide": {
          "lon": -58.5345816568901,
          "lat": -34.1558361119161
        }
      },
      {
        "id": "06805",
        "nombre": "Tigre",
        "nombre_completo": "Partido de Tigre",
        "provincia": {
          "id": "06",
          "nombre": "Buenos Aires",
          "interseccion": 0.00137293522010512
        },
        "fuente": "IGN",
        "categoria": "Partido",
        "centroide": {
          "lon": -58.5881738725709,
          "lat": -34.382019907997
        }
      },
      {
        "id": "10091",
        "nombre": "Santa María",
        "nombre_completo": "Departamento Santa María",
        "provincia": {
          "id": "10",
          "nombre": "Catamarca",
          "interseccion": 0.0538396608134818
        },
        "fuente": "IGN",
        "categoria": "Departamento",
        "centroide": {
          "lon": -66.2612705245824,
          "lat": -26.7734648563207
        }
      },
      {
        "id": "10098",
        "nombre": "Santa Rosa",
        "nombre_completo": "Departamento Santa Rosa",
        "provincia": {
          "id": "10",
          "nombre": "Catamarca",
          "interseccion": 0.0158071301342941
        },
        "fuente": "IGN",
        "categoria": "Departamento",
        "centroide": {
          "lon": -65.3350824661739,
          "lat": -28.082107971849
        }
      },
      {
        "id": "10070",
        "nombre": "La Paz",
        "nombre_completo": "Departamento La Paz",
        "provincia": {
          "id": "10",
          "nombre": "Catamarca",
          "interseccion": 0.0831710778153799
        },
        "fuente": "IGN",
        "categoria": "Departamento",
        "centroide": {
          "lon": -65.1920338746874,
          "lat": -29.3955036215545
        }
      },
      {
        "id": "86147",
        "nombre": "Río Hondo",
        "nombre_completo": "Departamento Río Hondo",
        "provincia": {
          "id": "86",
          "nombre": "Santiago del Estero",
          "interseccion": 0.0148991768678778
        },
        "fuente": "IGN",
        "categoria": "Departamento",
        "centroide": {
          "lon": -64.7601169003321,
          "lat": -27.4855424248983
        }
      },
      {
        "id": "46098",
        "nombre": "Vinchina",
        "nombre_completo": "Departamento Vinchina",
        "provincia": {
          "id": "46",
          "nombre": "La Rioja",
          "interseccion": 0.12310962382507
        },
        "fuente": "IGN",
        "categoria": "Departamento",
        "centroide": {
          "lon": -68.5252928296074,
          "lat": -28.3166977149073
        }
      },
      {
        "id": "46014",
        "nombre": "Capital",
        "nombre_completo": "Departamento Capital",
        "provincia": {
          "id": "46",
          "nombre": "La Rioja",
          "interseccion": 0.146560015973895
        },
        "fuente": "IGN",
        "categoria": "Departamento",
        "centroide": {
          "lon": -66.3526000997493,
          "lat": -29.4605896547988
        }
      },
      {
        "id": "14112",
        "nombre": "Río Seco",
        "nombre_completo": "Departamento Río Seco",
        "provincia": {
          "id": "14",
          "nombre": "Córdoba",
          "interseccion": 0.0401784049917181
        },
        "fuente": "IGN",
        "categoria": "Departamento",
        "centroide": {
          "lon": -63.1990187799045,
          "lat": -30.0450412488063
        }
      },
      {
        "id": "62014",
        "nombre": "Avellaneda",
        "nombre_completo": "Departamento Avellaneda",
        "provincia": {
          "id": "62",
          "nombre": "Río Negro",
          "interseccion": 0.096722575961708
        },
        "fuente": "IGN",
        "categoria": "Departamento",
        "centroide": {
          "lon": -66.20639651701,
          "lat": -39.4102626929359
        }
      },
      {
        "id": "62042",
        "nombre": "General Roca",
        "nombre_completo": "Departamento General Roca",
        "provincia": {
          "id": "62",
          "nombre": "Río Negro",
          "interseccion": 0.0703904436862414
        },
        "fuente": "IGN",
        "categoria": "Departamento",
        "centroide": {
          "lon": -67.5574036622512,
          "lat": -38.5298947783261
        }
      },
      {
        "id": "74014",
        "nombre": "Belgrano",
        "nombre_completo": "Departamento Belgrano",
        "provincia": {
          "id": "74",
          "nombre": "San Luis",
          "interseccion": 0.106028810154093
        },
        "fuente": "IGN",
        "categoria": "Departamento",
        "centroide": {
          "lon": -66.7150525486673,
          "lat": -32.7356111326592
        }
      },